{
"type": "FeatureCollection",
"crs": { "type": "name", "properties": { "name": "urn:ogc:def:crs:OGC:1.3:CRS84" } },
"features": [
{ "type": "Feature", "properties": { "Location": "290 Brownhill Rd, London, SE6 1AU", "Result": 34.0 }, "geometry": { "type": "Point", "coordinates": [ -0.0063042, 51.4450737 ] } },
{ "type": "Feature", "properties": { "Location": "baring road, london, se12", "Result": 33.4 }, "geometry": { "type": "Point", "coordinates": [ 0.0212846, 51.4323526 ] } },
{ "type": "Feature", "properties": { "Location": "Bell Green, London, ", "Result": 32.5 }, "geometry": { "type": "Point", "coordinates": [ -0.0374595, 51.4307475 ] } },
{ "type": "Feature", "properties": { "Location": "montpelier vale, blackheath, london", "Result": 31.2 }, "geometry": { "type": "Point", "coordinates": [ 0.0086121, 51.4663843 ] } },
{ "type": "Feature", "properties": { "Location": "New Cross Rd, London, SE14 6AR", "Result": 30.1 }, "geometry": { "type": "Point", "coordinates": [ -0.0394468, 51.4751094 ] } },
{ "type": "Feature", "properties": { "Location": "Brockley Rise, London, ", "Result": 30.1 }, "geometry": { "type": "Point", "coordinates": [ -0.0424015, 51.4467081 ] } },
{ "type": "Feature", "properties": { "Location": "catford hill, se6 4pw", "Result": 29.9 }, "geometry": { "type": "Point", "coordinates": [ -0.0261939, 51.4438164 ] } },
{ "type": "Feature", "properties": { "Location": "5 Stanton Way, London, SE26 5AD", "Result": 29.9 }, "geometry": { "type": "Point", "coordinates": [ -0.0372376, 51.4285431 ] } },
{ "type": "Feature", "properties": { "Location": "shardeloes road london ", "Result": 29.8 }, "geometry": { "type": "Point", "coordinates": [ -0.0360808, 51.465657 ] } },
{ "type": "Feature", "properties": { "Location": "Loampit Vale, London", "Result": 29.5 }, "geometry": { "type": "Point", "coordinates": [ -0.0166727, 51.4647213 ] } },
{ "type": "Feature", "properties": { "Location": "147 Perry Hill, London, SE6 4LP", "Result": 29.5 }, "geometry": { "type": "Point", "coordinates": [ -0.0352505, 51.4346992 ] } },
{ "type": "Feature", "properties": { "Location": "329 Lewisham High St, London, SE13 6NX", "Result": 28.2 }, "geometry": { "type": "Point", "coordinates": [ -0.0100847, 51.4626592 ] } },
{ "type": "Feature", "properties": { "Location": "New Cross Rd, London, SE14 6AR", "Result": 28.1 }, "geometry": { "type": "Point", "coordinates": [ -0.0394468, 51.4751094 ] } },
{ "type": "Feature", "properties": { "Location": "110 Drakefell Rd, London SE14 5SQ", "Result": 28.0 }, "geometry": { "type": "Point", "coordinates": [ -0.0435859, 51.4660143 ] } },
{ "type": "Feature", "properties": { "Location": "New Cross Rd, London, SE14 6AR", "Result": 27.7 }, "geometry": { "type": "Point", "coordinates": [ -0.0394468, 51.4751094 ] } },
{ "type": "Feature", "properties": { "Location": "94 Hither Green Lane, London, SE13 6PS", "Result": 27.5 }, "geometry": { "type": "Point", "coordinates": [ -0.0098491, 51.4559044 ] } },
{ "type": "Feature", "properties": { "Location": "41 Whitefoot Ln,  BR1 5SA", "Result": 27.3 }, "geometry": { "type": "Point", "coordinates": [ -0.0026178, 51.4309257 ] } },
{ "type": "Feature", "properties": { "Location": "", "Result": 26.9 }, "geometry": null },
{ "type": "Feature", "properties": { "Location": "4 Burnt Ash Rd, London, SE12 8PZ", "Result": 26.4 }, "geometry": { "type": "Point", "coordinates": [ 0.0126343, 51.4500873 ] } },
{ "type": "Feature", "properties": { "Location": "Deptford Park School, London, SE8 5RJ", "Result": 26.3 }, "geometry": { "type": "Point", "coordinates": [ -0.0371579, 51.4881048 ] } },
{ "type": "Feature", "properties": { "Location": "389 Hither Green Ln, London, SE13 6TR", "Result": 26.3 }, "geometry": { "type": "Point", "coordinates": [ 0.0034117, 51.446004 ] } },
{ "type": "Feature", "properties": { "Location": "Childeric Primary School, London, SE14 6DG", "Result": 26.1 }, "geometry": { "type": "Point", "coordinates": [ -0.03825350208419, 51.4764791 ] } },
{ "type": "Feature", "properties": { "Location": "Sir Francis Drake Primary School, London, SE8 5AE", "Result": 26.1 }, "geometry": { "type": "Point", "coordinates": [ -0.041886861934891, 51.48546135 ] } },
{ "type": "Feature", "properties": { "Location": "Ladywell Road, London", "Result": 25.7 }, "geometry": { "type": "Point", "coordinates": [ -0.0168874, 51.4566626 ] } },
{ "type": "Feature", "properties": { "Location": "Hatcham Park Rd, Lewisham", "Result": 25.6 }, "geometry": { "type": "Point", "coordinates": [ -0.0435922, 51.4758404 ] } },
{ "type": "Feature", "properties": { "Location": "1 Belmont Park, London, SE13 5BJ", "Result": 25.5 }, "geometry": { "type": "Point", "coordinates": [ -0.0003494, 51.4604181 ] } },
{ "type": "Feature", "properties": { "Location": "119 Sandhurst Rd, London SE6 1UR", "Result": 25.5 }, "geometry": null },
{ "type": "Feature", "properties": { "Location": "John Stainer Primary School, London, SE4 2DY", "Result": 25.3 }, "geometry": { "type": "Point", "coordinates": [ -0.039152129992561, 51.46424815 ] } },
{ "type": "Feature", "properties": { "Location": "Oakridge Rd, ", "Result": 25.3 }, "geometry": null },
{ "type": "Feature", "properties": { "Location": "398 Downham Way, , BR1 5HR", "Result": 25.2 }, "geometry": { "type": "Point", "coordinates": [ 0.0066733, 51.4252799 ] } },
{ "type": "Feature", "properties": { "Location": "22 Mayow Rd, London, SE23 2XQ", "Result": 25.1 }, "geometry": { "type": "Point", "coordinates": [ -0.0466027, 51.4295749 ] } },
{ "type": "Feature", "properties": { "Location": "40B Burnt Ash Rd, London, SE12 8PZ", "Result": 24.9 }, "geometry": { "type": "Point", "coordinates": [ 0.0126343, 51.4500873 ] } },
{ "type": "Feature", "properties": { "Location": "Whitburn Road London", "Result": 24.7 }, "geometry": { "type": "Point", "coordinates": [ -0.0146036, 51.4577983 ] } },
{ "type": "Feature", "properties": { "Location": "41 South Row, Blackheath, London SE3 0RX", "Result": 24.6 }, "geometry": { "type": "Point", "coordinates": [ 0.010838550891653, 51.4693897 ] } },
{ "type": "Feature", "properties": { "Location": "Stondon Park, London", "Result": 24.5 }, "geometry": { "type": "Point", "coordinates": [ -0.0415999, 51.4476945 ] } },
{ "type": "Feature", "properties": { "Location": "Goffers Road, Blackheath, London", "Result": 24.4 }, "geometry": { "type": "Point", "coordinates": [ 0.0033002, 51.4691384 ] } },
{ "type": "Feature", "properties": { "Location": "hazelbank road, london", "Result": 24.1 }, "geometry": { "type": "Point", "coordinates": [ -0.0005637, 51.4366516 ] } },
{ "type": "Feature", "properties": { "Location": "Sparta Street, London", "Result": 23.6 }, "geometry": null },
{ "type": "Feature", "properties": { "Location": "208 Verdant Lane, London, SE6 1LJ", "Result": 23.4 }, "geometry": { "type": "Point", "coordinates": [ 0.0092102, 51.4343266 ] } },
{ "type": "Feature", "properties": { "Location": "Rokeby Rd, London SE4 1DF", "Result": 22.8 }, "geometry": { "type": "Point", "coordinates": [ -0.0317015, 51.4705778 ] } },
{ "type": "Feature", "properties": { "Location": "101 Jerningham Road, London SE14 5NH", "Result": 22.6 }, "geometry": { "type": "Point", "coordinates": [ -0.0412725, 51.4705127 ] } },
{ "type": "Feature", "properties": { "Location": "Beecroft Garden Primary School, Brockley, London, SE4 2BS.", "Result": 22.5 }, "geometry": { "type": "Point", "coordinates": [ -0.036349331929897, 51.4569093 ] } },
{ "type": "Feature", "properties": { "Location": "46 Grinstead Road, London, SE8 5AD", "Result": 22.5 }, "geometry": { "type": "Point", "coordinates": [ -0.0364986, 51.4865145 ] } },
{ "type": "Feature", "properties": { "Location": "185 Hither Green Lane, London, SE13 6QE", "Result": 22.2 }, "geometry": { "type": "Point", "coordinates": [ -0.0070706, 51.4522512 ] } },
{ "type": "Feature", "properties": { "Location": "Le May Avenue, London", "Result": 22.1 }, "geometry": { "type": "Point", "coordinates": [ 0.0236442, 51.4327479 ] } },
{ "type": "Feature", "properties": { "Location": "131 Woodyates Road, London, SE12 9JJ", "Result": 22.1 }, "geometry": { "type": "Point", "coordinates": [ 0.0205192, 51.4453066 ] } },
{ "type": "Feature", "properties": { "Location": "Ringstead Road, Catford", "Result": 22.0 }, "geometry": { "type": "Point", "coordinates": [ -0.0157171, 51.4465498 ] } },
{ "type": "Feature", "properties": { "Location": "Chubworthy Street, London, se14 6he", "Result": 21.9 }, "geometry": { "type": "Point", "coordinates": [ -0.040595, 51.4816841 ] } },
{ "type": "Feature", "properties": { "Location": "140 Chudleigh Road, London, SE4 1EE", "Result": 21.9 }, "geometry": { "type": "Point", "coordinates": [ -0.0318115, 51.4538489 ] } },
{ "type": "Feature", "properties": { "Location": "308 Lee High Road, London SE13 5PJ", "Result": 21.8 }, "geometry": { "type": "Point", "coordinates": [ 0.0044613, 51.4585209 ] } },
{ "type": "Feature", "properties": { "Location": "1 Lind Street, London, SE8 4JE", "Result": 21.5 }, "geometry": { "type": "Point", "coordinates": [ -0.0211109, 51.4701982 ] } },
{ "type": "Feature", "properties": { "Location": "Boyne Road, Blackheath, London", "Result": 21.4 }, "geometry": { "type": "Point", "coordinates": [ -0.0054015, 51.4631092 ] } },
{ "type": "Feature", "properties": { "Location": "90 Passfields, London, SE6 2RF", "Result": 21.4 }, "geometry": { "type": "Point", "coordinates": [ -0.0153789, 51.4318297 ] } },
{ "type": "Feature", "properties": { "Location": "268 Manor Lane, London, SE12 0TG", "Result": 21.3 }, "geometry": { "type": "Point", "coordinates": [ 0.0064453, 51.4479918 ] } },
{ "type": "Feature", "properties": { "Location": "1 Plough WayLondon SE16 2LS", "Result": 21.1 }, "geometry": null },
{ "type": "Feature", "properties": { "Location": "101 Manor Lane, London, SE12 8LT", "Result": 20.9 }, "geometry": { "type": "Point", "coordinates": [ 0.0064453, 51.4479918 ] } },
{ "type": "Feature", "properties": { "Location": "1 Holme Lacey Road, London", "Result": 20.9 }, "geometry": { "type": "Point", "coordinates": [ 0.0116658, 51.4492158 ] } },
{ "type": "Feature", "properties": { "Location": "7 Fordmill Road, London, SE6 3JH", "Result": 20.9 }, "geometry": { "type": "Point", "coordinates": [ -0.0237575, 51.4392846 ] } },
{ "type": "Feature", "properties": { "Location": "Grinling Gibbons, Clyde St, London, SE8 5LW", "Result": 20.7 }, "geometry": { "type": "Point", "coordinates": [ -0.029463390119567, 51.48163835 ] } },
{ "type": "Feature", "properties": { "Location": "Grove St, london", "Result": 20.6 }, "geometry": { "type": "Point", "coordinates": [ -0.0330531, 51.4868117 ] } },
{ "type": "Feature", "properties": { "Location": "155 Woolstone Road, London, SE23 2TG", "Result": 20.5 }, "geometry": { "type": "Point", "coordinates": [ -0.0382231, 51.4375101 ] } },
{ "type": "Feature", "properties": { "Location": "208 Sangley Rd, London", "Result": 20.4 }, "geometry": { "type": "Point", "coordinates": [ -0.0139394, 51.4429994 ] } },
{ "type": "Feature", "properties": { "Location": "11 Giffin St, London SE8 4RJ", "Result": 20.4 }, "geometry": { "type": "Point", "coordinates": [ -0.0254773, 51.4776086 ] } },
{ "type": "Feature", "properties": { "Location": "Rathfern Road, London SE6 4NL", "Result": 20.4 }, "geometry": { "type": "Point", "coordinates": [ -0.0322735, 51.4404594 ] } },
{ "type": "Feature", "properties": { "Location": "Nelgarde Road, London SE6 4TP", "Result": 20.4 }, "geometry": { "type": "Point", "coordinates": [ -0.0230039, 51.4473608 ] } },
{ "type": "Feature", "properties": { "Location": "10 Bonfield Rd, London SE13 6AL", "Result": 20.3 }, "geometry": { "type": "Point", "coordinates": [ -0.010019718725541, 51.45997475 ] } },
{ "type": "Feature", "properties": { "Location": "George Lane, London, SE13 6HH", "Result": 20.3 }, "geometry": { "type": "Point", "coordinates": [ -0.0129901, 51.4504374 ] } },
{ "type": "Feature", "properties": { "Location": "Lucas Vale Primary School, London, SE8 4QF", "Result": 20.2 }, "geometry": null },
{ "type": "Feature", "properties": { "Location": "Bronze Street, London, SE8 3DT", "Result": 20.1 }, "geometry": { "type": "Point", "coordinates": [ -0.0225302, 51.4791758 ] } },
{ "type": "Feature", "properties": { "Location": "549 Downham Way, , BR1 5HX", "Result": 20.1 }, "geometry": { "type": "Point", "coordinates": [ 0.0066733, 51.4252799 ] } },
{ "type": "Feature", "properties": { "Location": "Kender Primary School, London SE14 5JA", "Result": 19.9 }, "geometry": { "type": "Point", "coordinates": [ -0.050439430311321, 51.4749128 ] } },
{ "type": "Feature", "properties": { "Location": "3 Brookehowse Road, London SE6 3TJ", "Result": 19.8 }, "geometry": { "type": "Point", "coordinates": [ -0.0230414, 51.4345152 ] } },
{ "type": "Feature", "properties": { "Location": "Christ Church C E Primary School, Forest Hill, SE23 2NE", "Result": 19.7 }, "geometry": null },
{ "type": "Feature", "properties": { "Location": "St James Hatcham School, London, SE14 6AD ", "Result": 19.6 }, "geometry": null },
{ "type": "Feature", "properties": { "Location": "121 Pepys Road, London, SE14 5SE", "Result": 19.6 }, "geometry": { "type": "Point", "coordinates": [ -0.043888579425649, 51.4692783 ] } },
{ "type": "Feature", "properties": { "Location": "Mayow Road,  London", "Result": 19.5 }, "geometry": { "type": "Point", "coordinates": [ -0.0466027, 51.4295749 ] } },
{ "type": "Feature", "properties": { "Location": "Montague Avenue, London", "Result": 19.4 }, "geometry": null },
{ "type": "Feature", "properties": { "Location": "75 Leyland Road, London, SE12 8DW", "Result": 19.3 }, "geometry": { "type": "Point", "coordinates": [ 0.0144377, 51.4520366 ] } },
{ "type": "Feature", "properties": { "Location": "Wells Park Road, London", "Result": 19.3 }, "geometry": { "type": "Point", "coordinates": [ -0.0716477, 51.4316676 ] } },
{ "type": "Feature", "properties": { "Location": "19 Manor Road, Beckenham, BR3 5JB", "Result": 19.2 }, "geometry": null },
{ "type": "Feature", "properties": { "Location": "51 Polstead Road, London, SE6 4YH", "Result": 19.1 }, "geometry": null },
{ "type": "Feature", "properties": { "Location": "136 Thornsbeach Road, London, SE6 1HB", "Result": 19.1 }, "geometry": { "type": "Point", "coordinates": [ -0.0102263, 51.4376401 ] } },
{ "type": "Feature", "properties": { "Location": "72 Tyrwhitt Road, London, SE4 1QB", "Result": 19.0 }, "geometry": { "type": "Point", "coordinates": [ -0.0243644, 51.4650149 ] } },
{ "type": "Feature", "properties": { "Location": "Dacre Park, London", "Result": 18.8 }, "geometry": { "type": "Point", "coordinates": [ 0.0044834, 51.4609203 ] } },
{ "type": "Feature", "properties": { "Location": "112 Crofton Park Road, London, SE4 1AL", "Result": 18.5 }, "geometry": { "type": "Point", "coordinates": [ -0.0336199, 51.4535484 ] } },
{ "type": "Feature", "properties": { "Location": "Sydenham School, London SE26 4RD", "Result": 18.3 }, "geometry": { "type": "Point", "coordinates": [ -0.059558966204771, 51.43420205 ] } },
{ "type": "Feature", "properties": { "Location": "St Mary Magdalen's, Howson Road, London SE4 2BB", "Result": 17.8 }, "geometry": null },
{ "type": "Feature", "properties": { "Location": "Rushey Green Primary School, London, SE6 2LA", "Result": 17.8 }, "geometry": { "type": "Point", "coordinates": [ -0.018219145226422, 51.4422984 ] } },
{ "type": "Feature", "properties": { "Location": "18 Jevington Way, London, SE12 9NE", "Result": 17.8 }, "geometry": { "type": "Point", "coordinates": [ 0.0274904, 51.4404431 ] } },
{ "type": "Feature", "properties": { "Location": "49 Castillon Road, London, SE6 1QB", "Result": 17.8 }, "geometry": { "type": "Point", "coordinates": [ 0.0024815, 51.4349469 ] } },
{ "type": "Feature", "properties": { "Location": "198 Glenbow Road, , BR1 4ND", "Result": 17.8 }, "geometry": { "type": "Point", "coordinates": [ 0.001747, 51.4207803 ] } },
{ "type": "Feature", "properties": { "Location": "1 Woodville Close, London, SE3 8ED", "Result": 17.7 }, "geometry": null },
{ "type": "Feature", "properties": { "Location": "Ashmead Primary School, London SE8 4DX", "Result": 17.6 }, "geometry": null },
{ "type": "Feature", "properties": { "Location": "160 Leahurst Road, London, SE13 5NL", "Result": 17.6 }, "geometry": { "type": "Point", "coordinates": [ 0.0004235, 51.4525616 ] } },
{ "type": "Feature", "properties": { "Location": "38 Thorpewood Avenue, London, SE26 4BX", "Result": 17.6 }, "geometry": { "type": "Point", "coordinates": [ -0.0611553, 51.4362983 ] } },
{ "type": "Feature", "properties": { "Location": "165 Downham Way, , BR1 5EL", "Result": 17.6 }, "geometry": { "type": "Point", "coordinates": [ 0.0066733, 51.4252799 ] } },
{ "type": "Feature", "properties": { "Location": "12 Pragnell Road, London, SE12 0LF", "Result": 17.4 }, "geometry": { "type": "Point", "coordinates": [ 0.0208502, 51.4373605 ] } },
{ "type": "Feature", "properties": { "Location": "Dacres Rd, Lewisham, London", "Result": 17.4 }, "geometry": { "type": "Point", "coordinates": [ -0.0475643, 51.4314758 ] } },
{ "type": "Feature", "properties": { "Location": "193 George Lane, London, SE13 6RY", "Result": 16.7 }, "geometry": { "type": "Point", "coordinates": [ -0.0078041, 51.4497192 ] } },
{ "type": "Feature", "properties": { "Location": "Downham Way, ", "Result": 16.6 }, "geometry": { "type": "Point", "coordinates": [ 0.0207022, 51.4306882 ] } },
{ "type": "Feature", "properties": { "Location": "Greenvale School, London, SE6 1UF", "Result": 15.9 }, "geometry": { "type": "Point", "coordinates": [ 0.0037153, 51.4332636 ] } }
]
}
