{
"type": "FeatureCollection",
"crs": { "type": "name", "properties": { "name": "urn:ogc:def:crs:OGC:1.3:CRS84" } },
"features": [
{ "type": "Feature", "properties": { "Name": "SSDT_39", "Location": "Wells Park Rd London", "Result": 19.3, "Longitude": -0.0716477, "Latitude": 51.4316676 }, "geometry": { "type": "Point", "coordinates": [ -0.0716477, 51.4316676 ] } },
{ "type": "Feature", "properties": { "Name": "SSDT_31", "Location": "Thorpewood Ave London SE26 4BX", "Result": 17.6, "Longitude": -0.0611553, "Latitude": 51.4362983 }, "geometry": { "type": "Point", "coordinates": [ -0.0611553, 51.4362983 ] } },
{ "type": "Feature", "properties": { "Name": "SSDT_38", "Location": "Dacres Rd, London SE23", "Result": 17.4, "Longitude": -0.051088, "Latitude": 51.4327472 }, "geometry": { "type": "Point", "coordinates": [ -0.051088, 51.4327472 ] } },
{ "type": "Feature", "properties": { "Name": "SSDT_40", "Location": "Mayow Rd London SE23 2XQ", "Result": 25.1, "Longitude": -0.0466027, "Latitude": 51.4295749 }, "geometry": { "type": "Point", "coordinates": [ -0.0466027, 51.4295749 ] } },
{ "type": "Feature", "properties": { "Name": "SSDT_5", "Location": "Pepys Rd London SE14 5SE", "Result": 19.6, "Longitude": -0.043888579425649159, "Latitude": 51.4692783 }, "geometry": { "type": "Point", "coordinates": [ -0.043888579425649, 51.4692783 ] } },
{ "type": "Feature", "properties": { "Name": "SSDT_51", "Location": "Drakefell Rd London SE14 5SQ", "Result": 28.0, "Longitude": -0.0435859, "Latitude": 51.4660143 }, "geometry": { "type": "Point", "coordinates": [ -0.0435859, 51.4660143 ] } },
{ "type": "Feature", "properties": { "Name": "SSDT_28", "Location": "Sandhurst Rd London SE6 1UR", "Result": 25.5, "Longitude": -0.04347538, "Latitude": 51.63910408 }, "geometry": { "type": "Point", "coordinates": [ -0.00416, 51.44224 ] } },
{ "type": "Feature", "properties": { "Name": "SSDT_6", "Location": "Jerningham Rd London SE14 5NH", "Result": 22.6, "Longitude": -0.0412725, "Latitude": 51.4705127 }, "geometry": { "type": "Point", "coordinates": [ -0.0412725, 51.4705127 ] } },
{ "type": "Feature", "properties": { "Name": "SSDT_32", "Location": "Woolstone Rd London SE23 2TG", "Result": 20.5, "Longitude": -0.0382231, "Latitude": 51.4375101 }, "geometry": { "type": "Point", "coordinates": [ -0.0382231, 51.4375101 ] } },
{ "type": "Feature", "properties": { "Name": "SSDT_41", "Location": "Stanton Way London SE26 5AD", "Result": 29.9, "Longitude": -0.0372376, "Latitude": 51.4285431 }, "geometry": { "type": "Point", "coordinates": [ -0.0372376, 51.4285431 ] } },
{ "type": "Feature", "properties": { "Name": "SSDT_1", "Location": "Grinstead Road, London SE8 5AD", "Result": 22.5, "Longitude": -0.0364986, "Latitude": 51.4865145 }, "geometry": { "type": "Point", "coordinates": [ -0.0364986, 51.4865145 ] } },
{ "type": "Feature", "properties": { "Name": "SSDT_37", "Location": "Perry Hill London SE6 4LP", "Result": 29.5, "Longitude": -0.0352505, "Latitude": 51.4346992 }, "geometry": { "type": "Point", "coordinates": [ -0.0352505, 51.4346992 ] } },
{ "type": "Feature", "properties": { "Name": "SSDT_17", "Location": "Crofton Park Rd London SE4 1AL", "Result": 18.5, "Longitude": -0.0336199, "Latitude": 51.4535484 }, "geometry": { "type": "Point", "coordinates": [ -0.0336199, 51.4535484 ] } },
{ "type": "Feature", "properties": { "Name": "SSDT_16", "Location": "Chudleigh Rd London SE4 1EE", "Result": 21.9, "Longitude": -0.0318115, "Latitude": 51.4538489 }, "geometry": { "type": "Point", "coordinates": [ -0.0318115, 51.4538489 ] } },
{ "type": "Feature", "properties": { "Name": "SSDT_49", "Location": "Tyrwhitt Rd London SE4 1QB", "Result": 19.0, "Longitude": -0.0243644, "Latitude": 51.4650149 }, "geometry": { "type": "Point", "coordinates": [ -0.0243644, 51.4650149 ] } },
{ "type": "Feature", "properties": { "Name": "SSDT_30", "Location": "Fordmill Road, London SE6 3JH", "Result": 20.9, "Longitude": -0.0237575, "Latitude": 51.4392846 }, "geometry": { "type": "Point", "coordinates": [ -0.0237575, 51.4392846 ] } },
{ "type": "Feature", "properties": { "Name": "SSDT_33", "Location": "Brookehowse Rd London SE6 3TJ", "Result": 19.8, "Longitude": -0.0230414, "Latitude": 51.4345152 }, "geometry": { "type": "Point", "coordinates": [ -0.0230414, 51.4345152 ] } },
{ "type": "Feature", "properties": { "Name": "SSDT_46", "Location": "Passfields, London SE6 2RF", "Result": 21.4, "Longitude": -0.0153789, "Latitude": 51.4318297 }, "geometry": { "type": "Point", "coordinates": [ -0.0153789, 51.4318297 ] } },
{ "type": "Feature", "properties": { "Name": "SSDT_18", "Location": "George Ln, London SE13 6HH", "Result": 20.3, "Longitude": -0.0129901, "Latitude": 51.4504374 }, "geometry": { "type": "Point", "coordinates": [ -0.0129901, 51.4504374 ] } },
{ "type": "Feature", "properties": { "Name": "SSDT_34", "Location": "Thornsbeach Rd London SE6 1HB", "Result": 19.1, "Longitude": -0.0102263, "Latitude": 51.4376401 }, "geometry": { "type": "Point", "coordinates": [ -0.0102263, 51.4376401 ] } },
{ "type": "Feature", "properties": { "Name": "SSDT_10", "Location": "Hither Green Ln London SE13 6PS", "Result": 27.5, "Longitude": -0.0098491, "Latitude": 51.4559044 }, "geometry": { "type": "Point", "coordinates": [ -0.0098491, 51.4559044 ] } },
{ "type": "Feature", "properties": { "Name": "SSDT_19", "Location": "George Ln London SE13 6RY", "Result": 16.7, "Longitude": -0.0078041, "Latitude": 51.4497192 }, "geometry": { "type": "Point", "coordinates": [ -0.0078041, 51.4497192 ] } },
{ "type": "Feature", "properties": { "Name": "SSDT_15", "Location": "Hither Green Ln London SE13 6QE", "Result": 22.2, "Longitude": -0.0070706, "Latitude": 51.4522512 }, "geometry": { "type": "Point", "coordinates": [ -0.0070706, 51.4522512 ] } },
{ "type": "Feature", "properties": { "Name": "SSDT_44", "Location": "Downham Way, Bromley", "Result": 16.6, "Longitude": -0.0047122, "Latitude": 51.4252026 }, "geometry": { "type": "Point", "coordinates": [ -0.0047122, 51.4252026 ] } },
{ "type": "Feature", "properties": { "Name": "SSDT_8", "Location": "Belmont Park London SE13 5BJ", "Result": 25.5, "Longitude": -0.0003494, "Latitude": 51.4604181 }, "geometry": { "type": "Point", "coordinates": [ -0.0003494, 51.4604181 ] } },
{ "type": "Feature", "properties": { "Name": "SSDT_14", "Location": "Leahurst Rd London SE13 5NL", "Result": 17.6, "Longitude": 0.0004235, "Latitude": 51.4525616 }, "geometry": { "type": "Point", "coordinates": [ 0.0004235, 51.4525616 ] } },
{ "type": "Feature", "properties": { "Name": "SSDT_35", "Location": "Castillon Rd London SE6 1QB", "Result": 17.8, "Longitude": 0.0024815, "Latitude": 51.4349469 }, "geometry": { "type": "Point", "coordinates": [ 0.0024815, 51.4349469 ] } },
{ "type": "Feature", "properties": { "Name": "SSDT_4", "Location": "Goffers Rd Blackheath, London", "Result": 24.4, "Longitude": 0.0033002, "Latitude": 51.4691384 }, "geometry": { "type": "Point", "coordinates": [ 0.0033002, 51.4691384 ] } },
{ "type": "Feature", "properties": { "Name": "SSDT_26", "Location": "Hither Green Ln London SE13 6TR", "Result": 26.3, "Longitude": 0.0034117, "Latitude": 51.446004 }, "geometry": { "type": "Point", "coordinates": [ 0.0034117, 51.446004 ] } },
{ "type": "Feature", "properties": { "Name": "SSDT_13", "Location": "Manor Lane, London SE12 8LT", "Result": 20.9, "Longitude": 0.0064453, "Latitude": 51.4479918 }, "geometry": { "type": "Point", "coordinates": [ 0.0064453, 51.4479918 ] } },
{ "type": "Feature", "properties": { "Name": "SSDT_25", "Location": "Manor Lane, London SE12 0TG", "Result": 21.3, "Longitude": 0.0064453, "Latitude": 51.4479918 }, "geometry": { "type": "Point", "coordinates": [ 0.0064453, 51.4479918 ] } },
{ "type": "Feature", "properties": { "Name": "SSDT_20", "Location": "Verdant Ln London SE6 1LJ", "Result": 23.4, "Longitude": 0.0092102, "Latitude": 51.4343266 }, "geometry": { "type": "Point", "coordinates": [ 0.0092102, 51.4343266 ] } },
{ "type": "Feature", "properties": { "Name": "SSDT_7", "Location": "S Row Blackheath, London SE3 0RX", "Result": 24.6, "Longitude": 0.010838550891653349, "Latitude": 51.4693897 }, "geometry": { "type": "Point", "coordinates": [ 0.010838550891653, 51.4693897 ] } },
{ "type": "Feature", "properties": { "Name": "SSDT_22", "Location": "Burnt Ash Rd London SE12 8PZ", "Result": 24.9, "Longitude": 0.0115314, "Latitude": 51.4560523 }, "geometry": { "type": "Point", "coordinates": [ 0.0115314, 51.4560523 ] } },
{ "type": "Feature", "properties": { "Name": "SSDT_12", "Location": "Burnt Ash Rd London SE12 8PZ", "Result": 26.4, "Longitude": 0.0115314, "Latitude": 51.4560523 }, "geometry": { "type": "Point", "coordinates": [ 0.0115314, 51.4560523 ] } },
{ "type": "Feature", "properties": { "Name": "SSDT_21", "Location": "Holme Lacey Road, London", "Result": 20.9, "Longitude": 0.0125923, "Latitude": 51.4493716 }, "geometry": { "type": "Point", "coordinates": [ 0.0125923, 51.4493716 ] } },
{ "type": "Feature", "properties": { "Name": "SSDT_23", "Location": "Leyland Rd London SE12 8DW", "Result": 19.3, "Longitude": 0.0144377, "Latitude": 51.4520366 }, "geometry": { "type": "Point", "coordinates": [ 0.0144377, 51.4520366 ] } },
{ "type": "Feature", "properties": { "Name": "SSDT_24", "Location": "Woodyates Rd London SE12 9JJ", "Result": 22.1, "Longitude": 0.0205192, "Latitude": 51.4453066 }, "geometry": { "type": "Point", "coordinates": [ 0.0205192, 51.4453066 ] } },
{ "type": "Feature", "properties": { "Name": "SSDT_36", "Location": "Pragnell Rd London SE12 0LF", "Result": 17.4, "Longitude": 0.0208502, "Latitude": 51.4373605 }, "geometry": { "type": "Point", "coordinates": [ 0.0208502, 51.4373605 ] } },
{ "type": "Feature", "properties": { "Name": "SSDT_11", "Location": "Woodville Cl London SE3 8ED", "Result": 17.7, "Longitude": 0.0257979, "Latitude": 51.4741455 }, "geometry": { "type": "Point", "coordinates": [ 0.0257979, 51.4741455 ] } },
{ "type": "Feature", "properties": { "Name": "SSDT_29", "Location": "Jevington Way London SE12 9NE", "Result": 17.8, "Longitude": 0.0274904, "Latitude": 51.4404431 }, "geometry": { "type": "Point", "coordinates": [ 0.0274904, 51.4404431 ] } },
{ "type": "Feature", "properties": { "Name": "SSDT_45", "Location": "Downham Way BR1 5EL", "Result": 17.6, "Longitude": 0.0066733, "Latitude": 51.4252799 }, "geometry": { "type": "Point", "coordinates": [ 0.0066733, 51.4252799 ] } },
{ "type": "Feature", "properties": { "Name": "SSDT_43", "Location": "Glenbow Rd BR1 4ND", "Result": 17.8, "Longitude": 0.001747, "Latitude": 51.4207803 }, "geometry": { "type": "Point", "coordinates": [ 0.001747, 51.4207803 ] } },
{ "type": "Feature", "properties": { "Name": "SSDT_27", "Location": "SE6 4YH", "Result": 19.1, "Longitude": -0.03216, "Latitude": 51.44511 }, "geometry": { "type": "Point", "coordinates": [ -0.03216, 51.44511 ] } },
{ "type": "Feature", "properties": { "Name": "SSDT_9", "Location": "Manor Rd BR3 5JB", "Result": 19.2, "Longitude": -0.0229991, "Latitude": 51.4073509 }, "geometry": { "type": "Point", "coordinates": [ -0.0229991, 51.4073509 ] } },
{ "type": "Feature", "properties": { "Name": "SSDT_48", "Location": "Downham Way BR1 5HX", "Result": 20.1, "Longitude": 0.0066733, "Latitude": 51.4252799 }, "geometry": { "type": "Point", "coordinates": [ 0.0066733, 51.4252799 ] } },
{ "type": "Feature", "properties": { "Name": "SSDT_3", "Location": "Lind St SE8 4JE", "Result": 21.5, "Longitude": -0.0211109, "Latitude": 51.4701982 }, "geometry": { "type": "Point", "coordinates": [ -0.0211109, 51.4701982 ] } },
{ "type": "Feature", "properties": { "Name": "SSDT_47", "Location": "Downham Way BR1 5HR", "Result": 25.2, "Longitude": 0.0066733, "Latitude": 51.4252799 }, "geometry": { "type": "Point", "coordinates": [ 0.0066733, 51.4252799 ] } },
{ "type": "Feature", "properties": { "Name": "SSDT_42", "Location": "Oakridge Rd, London", "Result": 25.3, "Longitude": -0.0044959, "Latitude": 51.425707 }, "geometry": { "type": "Point", "coordinates": [ -0.0044959, 51.425707 ] } }
]
}
